{"data": [{"name": "Andiamo Restaurant + Bar", "url": "https://www.yelp.com/biz/andiamo-restaurant-bar-chelmsford?adjust_creative=WMqiNkJ3XbQjLxHnZ2l8pQ&utm_campaign=yelp_api_v3&utm_medium=api_v3_business_search&utm_source=WMqiNkJ3XbQjLxHnZ2l8pQ", "review_count": 55, "location": {"city": "Chelmsford", "zip_code": "01824", "address3": null, "country": "US", "address1": "18 Boston Rd", "display_address": ["18 Boston Rd", "Chelmsford, MA 01824"], "state": "MA", "address2": ""}, "id": "andiamo-restaurant-bar-chelmsford", "display_phone": "(978) 710-7218", "transactions": [], "phone": "+19787107218", "distance": 764.4974457057999, "categories": [{"title": "Italian", "alias": "italian"}, {"title": "American (Traditional)", "alias": "tradamerican"}, {"title": "Bars", "alias": "bars"}], "coordinates": {"longitude": -71.3511484, "latitude": 42.5939758}, "price": "$$", "is_closed": false, "rating": 3.5, "image_url": "https://s3-media1.fl.yelpcdn.com/bphoto/TWIMe-PpBy1OcezeFJ_ARA/o.jpg"}, {"name": "Fishbones", "url": "https://www.yelp.com/biz/fishbones-chelmsford?adjust_creative=WMqiNkJ3XbQjLxHnZ2l8pQ&utm_campaign=yelp_api_v3&utm_medium=api_v3_business_search&utm_source=WMqiNkJ3XbQjLxHnZ2l8pQ", "review_count": 330, "location": {"city": "Chelmsford", "zip_code": "01824", "address3": "", "country": "US", "address1": "34 Central Sq", "display_address": ["34 Central Sq", "Chelmsford, MA 01824"], "state": "MA", "address2": ""}, "id": "fishbones-chelmsford", "display_phone": "(978) 250-0101", "transactions": [], "phone": "+19782500101", "distance": 911.817925992, "categories": [{"title": "Seafood", "alias": "seafood"}], "coordinates": {"longitude": -71.351788, "latitude": 42.595965}, "price": "$$", "is_closed": false, "rating": 4.0, "image_url": "https://s3-media2.fl.yelpcdn.com/bphoto/B9xWEF23nB-f0aJkrZHjhw/o.jpg"}, {"name": "Nobo Restaurant", "url": "https://www.yelp.com/biz/nobo-restaurant-chelmsford?adjust_creative=WMqiNkJ3XbQjLxHnZ2l8pQ&utm_campaign=yelp_api_v3&utm_medium=api_v3_business_search&utm_source=WMqiNkJ3XbQjLxHnZ2l8pQ", "review_count": 91, "location": {"city": "Chelmsford", "zip_code": "01824", "address3": "", "country": "US", "address1": "18 Boston Rd", "display_address": ["18 Boston Rd", "Chelmsford, MA 01824"], "state": "MA", "address2": ""}, "id": "nobo-restaurant-chelmsford", "display_phone": "(978) 770-2499", "transactions": [], "phone": "+19787702499", "distance": 612.545703328, "categories": [{"title": "Sushi Bars", "alias": "sushi"}, {"title": "Japanese", "alias": "japanese"}, {"title": "Bars", "alias": "bars"}], "coordinates": {"longitude": -71.3510818, "latitude": 42.5938263}, "price": "$$", "is_closed": false, "rating": 4.0, "image_url": "https://s3-media1.fl.yelpcdn.com/bphoto/AUpPrdXGpmDeYz_8FFzdKw/o.jpg"}, {"name": "Amici Trattoria", "url": "https://www.yelp.com/biz/amici-trattoria-chelmsford?adjust_creative=WMqiNkJ3XbQjLxHnZ2l8pQ&utm_campaign=yelp_api_v3&utm_medium=api_v3_business_search&utm_source=WMqiNkJ3XbQjLxHnZ2l8pQ", "review_count": 53, "location": {"city": "Chelmsford", "zip_code": "01824", "address3": "", "country": "US", "address1": "7 Summer St", "display_address": ["7 Summer St", "Chelmsford, MA 01824"], "state": "MA", "address2": ""}, "id": "amici-trattoria-chelmsford", "display_phone": "(978) 244-9154", "transactions": [], "phone": "+19782449154", "distance": 691.8147750055999, "categories": [{"title": "Italian", "alias": "italian"}, {"title": "Pizza", "alias": "pizza"}], "coordinates": {"longitude": -71.3481674194336, "latitude": 42.593864440918}, "price": "$$", "is_closed": false, "rating": 4.0, "image_url": "https://s3-media2.fl.yelpcdn.com/bphoto/r5axFXbuBXmWB5CU2-x-PA/o.jpg"}, {"name": "110 Grill", "url": "https://www.yelp.com/biz/110-grill-chelmsford?adjust_creative=WMqiNkJ3XbQjLxHnZ2l8pQ&utm_campaign=yelp_api_v3&utm_medium=api_v3_business_search&utm_source=WMqiNkJ3XbQjLxHnZ2l8pQ", "review_count": 94, "location": {"city": "Chelmsford", "zip_code": "01824", "address3": "", "country": "US", "address1": "116 Chelmsford St", "display_address": ["116 Chelmsford St", "Chelmsford, MA 01824"], "state": "MA", "address2": null}, "id": "110-grill-chelmsford", "display_phone": "(978) 256-2777", "transactions": [], "phone": "+19782562777", "distance": 1691.0331561459998, "categories": [{"title": "American (Traditional)", "alias": "tradamerican"}, {"title": "Italian", "alias": "italian"}, {"title": "Desserts", "alias": "desserts"}], "coordinates": {"longitude": -71.346626, "latitude": 42.603046}, "price": "$$", "is_closed": false, "rating": 3.5, "image_url": "https://s3-media3.fl.yelpcdn.com/bphoto/uog2Q9mGppFG7JvbU367lw/o.jpg"}, {"name": "Moonstones", "url": "https://www.yelp.com/biz/moonstones-chelmsford?adjust_creative=WMqiNkJ3XbQjLxHnZ2l8pQ&utm_campaign=yelp_api_v3&utm_medium=api_v3_business_search&utm_source=WMqiNkJ3XbQjLxHnZ2l8pQ", "review_count": 312, "location": {"city": "Chelmsford", "zip_code": "01824", "address3": "", "country": "US", "address1": "185 Chelmsford St", "display_address": ["185 Chelmsford St", "Chelmsford, MA 01824"], "state": "MA", "address2": ""}, "id": "moonstones-chelmsford", "display_phone": "(978) 256-7777", "transactions": [], "phone": "+19782567777", "distance": 2215.329574036, "categories": [{"title": "Live/Raw Food", "alias": "raw_food"}, {"title": "Tapas Bars", "alias": "tapas"}, {"title": "Cocktail Bars", "alias": "cocktailbars"}], "coordinates": {"longitude": -71.3407, "latitude": 42.6083}, "price": "$$$", "is_closed": false, "rating": 4.0, "image_url": "https://s3-media1.fl.yelpcdn.com/bphoto/CXApFZAAgj5WXOpKAMlEhQ/o.jpg"}, {"name": "Pita", "url": "https://www.yelp.com/biz/pita-chelmsford-2?adjust_creative=WMqiNkJ3XbQjLxHnZ2l8pQ&utm_campaign=yelp_api_v3&utm_medium=api_v3_business_search&utm_source=WMqiNkJ3XbQjLxHnZ2l8pQ", "review_count": 52, "location": {"city": "Chelmsford", "zip_code": "01824", "address3": null, "country": "US", "address1": "18 Boston Rd", "display_address": ["18 Boston Rd", "Chelmsford, MA 01824"], "state": "MA", "address2": ""}, "id": "pita-chelmsford-2", "display_phone": "(978) 455-4092", "transactions": [], "phone": "+19784554092", "distance": 674.9727422244, "categories": [{"title": "Salad", "alias": "salad"}, {"title": "Greek", "alias": "greek"}, {"title": "Mediterranean", "alias": "mediterranean"}], "coordinates": {"longitude": -71.3512370735407, "latitude": 42.5938774645329}, "price": "$$", "is_closed": false, "rating": 4.0, "image_url": "https://s3-media1.fl.yelpcdn.com/bphoto/5BNjh5-ybCZUW77J8-f4_Q/o.jpg"}, {"name": "Sichuan Palace", "url": "https://www.yelp.com/biz/sichuan-palace-chelmsford?adjust_creative=WMqiNkJ3XbQjLxHnZ2l8pQ&utm_campaign=yelp_api_v3&utm_medium=api_v3_business_search&utm_source=WMqiNkJ3XbQjLxHnZ2l8pQ", "review_count": 75, "location": {"city": "Chelmsford", "zip_code": "01824", "address3": "", "country": "US", "address1": "7 Summer St", "display_address": ["7 Summer St", "Ste 17-18", "Chelmsford, MA 01824"], "state": "MA", "address2": "Ste 17-18"}, "id": "sichuan-palace-chelmsford", "display_phone": "(978) 256-8545", "transactions": [], "phone": "+19782568545", "distance": 676.4976079677999, "categories": [{"title": "Chinese", "alias": "chinese"}], "coordinates": {"longitude": -71.3481674194336, "latitude": 42.593864440918}, "price": "$$", "is_closed": false, "rating": 3.5, "image_url": "https://s3-media4.fl.yelpcdn.com/bphoto/e06dBzVYXJLW-35ZK0SHyg/o.jpg"}, {"name": "The Java Room", "url": "https://www.yelp.com/biz/the-java-room-chelmsford?adjust_creative=WMqiNkJ3XbQjLxHnZ2l8pQ&utm_campaign=yelp_api_v3&utm_medium=api_v3_business_search&utm_source=WMqiNkJ3XbQjLxHnZ2l8pQ", "review_count": 87, "location": {"city": "Chelmsford", "zip_code": "01824", "address3": "", "country": "US", "address1": "14 Littleton Rd", "display_address": ["14 Littleton Rd", "Chelmsford, MA 01824"], "state": "MA", "address2": null}, "id": "the-java-room-chelmsford", "display_phone": "(978) 256-0001", "transactions": [], "phone": "+19782560001", "distance": 1002.880257283, "categories": [{"title": "Coffee & Tea", "alias": "coffee"}, {"title": "Music Venues", "alias": "musicvenues"}, {"title": "Cocktail Bars", "alias": "cocktailbars"}], "coordinates": {"longitude": -71.35436, "latitude": 42.59639}, "price": "$$", "is_closed": false, "rating": 4.0, "image_url": "https://s3-media1.fl.yelpcdn.com/bphoto/pHhQrj_VQtKpfhyV6sR2mA/o.jpg"}, {"name": "Rosco's Diner", "url": "https://www.yelp.com/biz/roscos-diner-chelmsford?adjust_creative=WMqiNkJ3XbQjLxHnZ2l8pQ&utm_campaign=yelp_api_v3&utm_medium=api_v3_business_search&utm_source=WMqiNkJ3XbQjLxHnZ2l8pQ", "review_count": 11, "location": {"city": "Chelmsford", "zip_code": "01824", "address3": null, "country": "US", "address1": "11 Central Square", "display_address": ["11 Central Square", "Chelmsford, MA 01824"], "state": "MA", "address2": ""}, "id": "roscos-diner-chelmsford", "display_phone": "(978) 954-4774", "transactions": [], "phone": "+19789544774", "distance": 980.410571736, "categories": [{"title": "Breakfast & Brunch", "alias": "breakfast_brunch"}, {"title": "American (Traditional)", "alias": "tradamerican"}], "coordinates": {"longitude": -71.35214, "latitude": 42.59651}, "price": "$$", "is_closed": false, "rating": 4.5, "image_url": "https://s3-media2.fl.yelpcdn.com/bphoto/ep8L3j14xe0u1-FYhteZuw/o.jpg"}, {"name": "The Centre Deli", "url": "https://www.yelp.com/biz/the-centre-deli-chelmsford?adjust_creative=WMqiNkJ3XbQjLxHnZ2l8pQ&utm_campaign=yelp_api_v3&utm_medium=api_v3_business_search&utm_source=WMqiNkJ3XbQjLxHnZ2l8pQ", "review_count": 33, "location": {"city": "Chelmsford", "zip_code": "01824", "address3": "", "country": "US", "address1": "7 Summer St", "display_address": ["7 Summer St", "Unit 4", "Chelmsford, MA 01824"], "state": "MA", "address2": "Unit 4"}, "id": "the-centre-deli-chelmsford", "display_phone": "(978) 256-3621", "transactions": [], "phone": "+19782563621", "distance": 742.5788786418, "categories": [{"title": "Delis", "alias": "delis"}], "coordinates": {"longitude": -71.3481674194336, "latitude": 42.593864440918}, "price": "$", "is_closed": false, "rating": 4.5, "image_url": "https://s3-media4.fl.yelpcdn.com/bphoto/mtzdTlzNPF8xeKRjn_lDrA/o.jpg"}, {"name": "Cafe 12", "url": "https://www.yelp.com/biz/cafe-12-chelmsford?adjust_creative=WMqiNkJ3XbQjLxHnZ2l8pQ&utm_campaign=yelp_api_v3&utm_medium=api_v3_business_search&utm_source=WMqiNkJ3XbQjLxHnZ2l8pQ", "review_count": 57, "location": {"city": "Chelmsford", "zip_code": "01824", "address3": "", "country": "US", "address1": "12 Chelmsford St", "display_address": ["12 Chelmsford St", "Chelmsford, MA 01824"], "state": "MA", "address2": ""}, "id": "cafe-12-chelmsford", "display_phone": "(978) 256-5540", "transactions": [], "phone": "+19782565540", "distance": 1099.4105304381999, "categories": [{"title": "Breakfast & Brunch", "alias": "breakfast_brunch"}, {"title": "Sandwiches", "alias": "sandwiches"}, {"title": "Cupcakes", "alias": "cupcakes"}], "coordinates": {"longitude": -71.3509614765644, "latitude": 42.5974870473146}, "price": "$$", "is_closed": false, "rating": 4.0, "image_url": "https://s3-media4.fl.yelpcdn.com/bphoto/w6om6gXG6ix4iTlfF9mRNg/o.jpg"}, {"name": "Cancun Mexican Restaurant", "url": "https://www.yelp.com/biz/cancun-mexican-restaurant-chelmsford?adjust_creative=WMqiNkJ3XbQjLxHnZ2l8pQ&utm_campaign=yelp_api_v3&utm_medium=api_v3_business_search&utm_source=WMqiNkJ3XbQjLxHnZ2l8pQ", "review_count": 23, "location": {"city": "Chelmsford", "zip_code": "01824", "address3": null, "country": "US", "address1": "14 Chelmsford St", "display_address": ["14 Chelmsford St", "Chelmsford, MA 01824"], "state": "MA", "address2": ""}, "id": "cancun-mexican-restaurant-chelmsford", "display_phone": "(978) 455-2818", "transactions": [], "phone": "+19784552818", "distance": 1081.4719738479998, "categories": [{"title": "Tacos", "alias": "tacos"}, {"title": "Salad", "alias": "salad"}, {"title": "Soup", "alias": "soup"}], "coordinates": {"longitude": -71.3512097, "latitude": 42.59757}, "price": "$$", "is_closed": false, "rating": 3.0, "image_url": "https://s3-media1.fl.yelpcdn.com/bphoto/6OiG0clVA5GS9cwS2J05Cw/o.jpg"}, {"name": "Madras Grill", "url": "https://www.yelp.com/biz/madras-grill-chelmsford?adjust_creative=WMqiNkJ3XbQjLxHnZ2l8pQ&utm_campaign=yelp_api_v3&utm_medium=api_v3_business_search&utm_source=WMqiNkJ3XbQjLxHnZ2l8pQ", "review_count": 98, "location": {"city": "Chelmsford", "zip_code": "01824", "address3": "", "country": "US", "address1": "7 Summer St", "display_address": ["7 Summer St", "Chelmsford, MA 01824"], "state": "MA", "address2": ""}, "id": "madras-grill-chelmsford", "display_phone": "(978) 330-5133", "transactions": [], "phone": "+19783305133", "distance": 708.7825938011999, "categories": [{"title": "Indian", "alias": "indpak"}, {"title": "Buffets", "alias": "buffets"}], "coordinates": {"longitude": -71.347428, "latitude": 42.594028}, "price": "$$", "is_closed": false, "rating": 3.5, "image_url": "https://s3-media2.fl.yelpcdn.com/bphoto/BMB0_zB6MrP-vMBVCBEOlA/o.jpg"}, {"name": "Zesty's Pizza", "url": "https://www.yelp.com/biz/zestys-pizza-chelmsford-3?adjust_creative=WMqiNkJ3XbQjLxHnZ2l8pQ&utm_campaign=yelp_api_v3&utm_medium=api_v3_business_search&utm_source=WMqiNkJ3XbQjLxHnZ2l8pQ", "review_count": 55, "location": {"city": "Chelmsford", "zip_code": "01824", "address3": "", "country": "US", "address1": "14 Fletcher St", "display_address": ["14 Fletcher St", "Chelmsford, MA 01824"], "state": "MA", "address2": ""}, "id": "zestys-pizza-chelmsford-3", "display_phone": "(978) 256-8863", "transactions": [], "phone": "+19782568863", "distance": 1376.90382847, "categories": [{"title": "Pizza", "alias": "pizza"}, {"title": "Sandwiches", "alias": "sandwiches"}, {"title": "Pasta Shops", "alias": "pastashops"}], "coordinates": {"longitude": -71.3493, "latitude": 42.60021}, "price": "$", "is_closed": false, "rating": 4.0, "image_url": "https://s3-media3.fl.yelpcdn.com/bphoto/95-_i7NUaDMjUF8mPCQkaw/o.jpg"}, {"name": "Brickhouse Center Sports Grill", "url": "https://www.yelp.com/biz/brickhouse-center-sports-grill-chelmsford?adjust_creative=WMqiNkJ3XbQjLxHnZ2l8pQ&utm_campaign=yelp_api_v3&utm_medium=api_v3_business_search&utm_source=WMqiNkJ3XbQjLxHnZ2l8pQ", "review_count": 83, "location": {"city": "Chelmsford", "zip_code": "01824", "address3": null, "country": "US", "address1": "1 Central Sq", "display_address": ["1 Central Sq", "Chelmsford, MA 01824"], "state": "MA", "address2": null}, "id": "brickhouse-center-sports-grill-chelmsford", "display_phone": "(978) 256-2112", "transactions": [], "phone": "+19782562112", "distance": 1007.747947514, "categories": [{"title": "Pizza", "alias": "pizza"}, {"title": "Sports Bars", "alias": "sportsbars"}, {"title": "Diners", "alias": "diners"}], "coordinates": {"longitude": -71.352258806531, "latitude": 42.59677948509}, "price": "$$", "is_closed": false, "rating": 3.0, "image_url": "https://s3-media1.fl.yelpcdn.com/bphoto/E2Jq5HqvCz0UP5bKaqCUVw/o.jpg"}, {"name": "Sakura Japanese Cuisine", "url": "https://www.yelp.com/biz/sakura-japanese-cuisine-chelmsford?adjust_creative=WMqiNkJ3XbQjLxHnZ2l8pQ&utm_campaign=yelp_api_v3&utm_medium=api_v3_business_search&utm_source=WMqiNkJ3XbQjLxHnZ2l8pQ", "review_count": 47, "location": {"city": "Chelmsford", "zip_code": "01824", "address3": "", "country": "US", "address1": "7 Summer St", "display_address": ["7 Summer St", "Chelmsford, MA 01824"], "state": "MA", "address2": ""}, "id": "sakura-japanese-cuisine-chelmsford", "display_phone": "(978) 244-1228", "transactions": [], "phone": "+19782441228", "distance": 720.935396064, "categories": [{"title": "Japanese", "alias": "japanese"}, {"title": "Sushi Bars", "alias": "sushi"}], "coordinates": {"longitude": -71.3474538744887, "latitude": 42.5941479389489}, "price": "$$", "is_closed": false, "rating": 3.5, "image_url": "https://s3-media3.fl.yelpcdn.com/bphoto/zwvcwoZ2ZcCvUT-6qZSHBQ/o.jpg"}, {"name": "Chelmsford Diner", "url": "https://www.yelp.com/biz/chelmsford-diner-chelmsford?adjust_creative=WMqiNkJ3XbQjLxHnZ2l8pQ&utm_campaign=yelp_api_v3&utm_medium=api_v3_business_search&utm_source=WMqiNkJ3XbQjLxHnZ2l8pQ", "review_count": 55, "location": {"city": "Chelmsford", "zip_code": "01824", "address3": "", "country": "US", "address1": "7 Summer St", "display_address": ["7 Summer St", "Ste 25", "Chelmsford, MA 01824"], "state": "MA", "address2": "Ste 25"}, "id": "chelmsford-diner-chelmsford", "display_phone": "(978) 455-0648", "transactions": [], "phone": "+19784550648", "distance": 742.5788786418, "categories": [{"title": "Diners", "alias": "diners"}, {"title": "Breakfast & Brunch", "alias": "breakfast_brunch"}, {"title": "Sandwiches", "alias": "sandwiches"}], "coordinates": {"longitude": -71.3481216, "latitude": 42.5938492}, "price": "$", "is_closed": false, "rating": 3.5, "image_url": "https://s3-media4.fl.yelpcdn.com/bphoto/oq2hb6sIdbsznyMK5aMbMg/o.jpg"}, {"name": "Bertucci's", "url": "https://www.yelp.com/biz/bertuccis-chelmsford?adjust_creative=WMqiNkJ3XbQjLxHnZ2l8pQ&utm_campaign=yelp_api_v3&utm_medium=api_v3_business_search&utm_source=WMqiNkJ3XbQjLxHnZ2l8pQ", "review_count": 50, "location": {"city": "Chelmsford", "zip_code": "01824", "address3": "", "country": "US", "address1": "14 Littleton Rd", "display_address": ["14 Littleton Rd", "Chelmsford, MA 01824"], "state": "MA", "address2": ""}, "id": "bertuccis-chelmsford", "display_phone": "(978) 250-8800", "transactions": [], "phone": "+19782508800", "distance": 1006.164115553, "categories": [{"title": "Pizza", "alias": "pizza"}, {"title": "Italian", "alias": "italian"}, {"title": "Gluten-Free", "alias": "gluten_free"}], "coordinates": {"longitude": -71.35436, "latitude": 42.59639}, "price": "$$", "is_closed": false, "rating": 3.0, "image_url": "https://s3-media2.fl.yelpcdn.com/bphoto/uLpcsy-e3dH3U2D6wQAjEw/o.jpg"}, {"name": "Jimmy's Pizza", "url": "https://www.yelp.com/biz/jimmys-pizza-chelmsford?adjust_creative=WMqiNkJ3XbQjLxHnZ2l8pQ&utm_campaign=yelp_api_v3&utm_medium=api_v3_business_search&utm_source=WMqiNkJ3XbQjLxHnZ2l8pQ", "review_count": 58, "location": {"city": "Chelmsford", "zip_code": "01824", "address3": "", "country": "US", "address1": "2 Alpine Ln", "display_address": ["2 Alpine Ln", "Chelmsford, MA 01824"], "state": "MA", "address2": ""}, "id": "jimmys-pizza-chelmsford", "display_phone": "(978) 250-8100", "transactions": [], "phone": "+19782508100", "distance": 1614.244624584, "categories": [{"title": "Pizza", "alias": "pizza"}], "coordinates": {"longitude": -71.3465646654367, "latitude": 42.602327093482}, "price": "$", "is_closed": false, "rating": 3.5, "image_url": "https://s3-media2.fl.yelpcdn.com/bphoto/_bmmMBiZgFmgdalwzJi1lw/o.jpg"}, {"name": "Yoong Tong II", "url": "https://www.yelp.com/biz/yoong-tong-ii-chelmsford?adjust_creative=WMqiNkJ3XbQjLxHnZ2l8pQ&utm_campaign=yelp_api_v3&utm_medium=api_v3_business_search&utm_source=WMqiNkJ3XbQjLxHnZ2l8pQ", "review_count": 28, "location": {"city": "Chelmsford", "zip_code": "01824", "address3": "", "country": "US", "address1": "61 Central Square", "display_address": ["61 Central Square", "Ste 6", "Chelmsford, MA 01824"], "state": "MA", "address2": "Ste 6"}, "id": "yoong-tong-ii-chelmsford", "display_phone": "(978) 244-2442", "transactions": ["delivery", "pickup"], "phone": "+19782442442", "distance": 1055.8779960919999, "categories": [{"title": "Thai", "alias": "thai"}], "coordinates": {"longitude": -71.351915, "latitude": 42.5971662}, "price": "$$", "is_closed": false, "rating": 3.5, "image_url": "https://s3-media2.fl.yelpcdn.com/bphoto/wRUWgndY6OCbNbk11mm7jw/o.jpg"}, {"name": "Pizza Place", "url": "https://www.yelp.com/biz/pizza-place-chelmsford?adjust_creative=WMqiNkJ3XbQjLxHnZ2l8pQ&utm_campaign=yelp_api_v3&utm_medium=api_v3_business_search&utm_source=WMqiNkJ3XbQjLxHnZ2l8pQ", "review_count": 13, "location": {"city": "Chelmsford", "zip_code": "01824", "address3": "", "country": "US", "address1": "210 Boston Rd", "display_address": ["210 Boston Rd", "Chelmsford, MA 01824"], "state": "MA", "address2": ""}, "id": "pizza-place-chelmsford", "display_phone": "(978) 256-2721", "transactions": [], "phone": "+19782562721", "distance": 1502.4554746858, "categories": [{"title": "Pizza", "alias": "pizza"}], "coordinates": {"longitude": -71.3397216796875, "latitude": 42.5794410705566}, "price": "$", "is_closed": false, "rating": 4.5, "image_url": "https://s3-media1.fl.yelpcdn.com/bphoto/BkZ4jKRqQg0jMMnBJZOQJQ/o.jpg"}, {"name": "Friendly's", "url": "https://www.yelp.com/biz/friendlys-chelmsford?adjust_creative=WMqiNkJ3XbQjLxHnZ2l8pQ&utm_campaign=yelp_api_v3&utm_medium=api_v3_business_search&utm_source=WMqiNkJ3XbQjLxHnZ2l8pQ", "review_count": 37, "location": {"city": "Chelmsford", "zip_code": "01824", "address3": "", "country": "US", "address1": "20 Boston Rd", "display_address": ["20 Boston Rd", "Chelmsford, MA 01824"], "state": "MA", "address2": ""}, "id": "friendlys-chelmsford", "display_phone": "(978) 256-5351", "transactions": [], "phone": "+19782565351", "distance": 679.6549399269999, "categories": [{"title": "American (Traditional)", "alias": "tradamerican"}, {"title": "Ice Cream & Frozen Yogurt", "alias": "icecream"}, {"title": "Burgers", "alias": "burgers"}], "coordinates": {"longitude": -71.351195499301, "latitude": 42.5937507301569}, "price": "$$", "is_closed": false, "rating": 2.0, "image_url": "https://s3-media4.fl.yelpcdn.com/bphoto/05i-jAwyvrLwvW03hqPVIw/o.jpg"}, {"name": "Hong & Kong Restaurant & Lounge", "url": "https://www.yelp.com/biz/hong-and-kong-restaurant-and-lounge-chelmsford-3?adjust_creative=WMqiNkJ3XbQjLxHnZ2l8pQ&utm_campaign=yelp_api_v3&utm_medium=api_v3_business_search&utm_source=WMqiNkJ3XbQjLxHnZ2l8pQ", "review_count": 47, "location": {"city": "Chelmsford", "zip_code": "01824", "address3": "", "country": "US", "address1": "32 Alpine Ln", "display_address": ["32 Alpine Ln", "Chelmsford, MA 01824"], "state": "MA", "address2": ""}, "id": "hong-and-kong-restaurant-and-lounge-chelmsford-3", "display_phone": "(978) 256-6321", "transactions": ["delivery", "pickup"], "phone": "+19782566321", "distance": 1638.633689482, "categories": [{"title": "Chinese", "alias": "chinese"}], "coordinates": {"longitude": -71.348274230957, "latitude": 42.6025199890137}, "price": "$", "is_closed": false, "rating": 3.0, "image_url": "https://s3-media3.fl.yelpcdn.com/bphoto/a0i7XAvm2vvVMpqr6Ldovw/o.jpg"}, {"name": "Papa Gino's Pizzeria", "url": "https://www.yelp.com/biz/papa-ginos-pizzeria-chelmsford?adjust_creative=WMqiNkJ3XbQjLxHnZ2l8pQ&utm_campaign=yelp_api_v3&utm_medium=api_v3_business_search&utm_source=WMqiNkJ3XbQjLxHnZ2l8pQ", "review_count": 15, "location": {"city": "Chelmsford", "zip_code": "01824", "address3": "", "country": "US", "address1": "29 Chelmsford St", "display_address": ["29 Chelmsford St", "Chelmsford, MA 01824"], "state": "MA", "address2": ""}, "id": "papa-ginos-pizzeria-chelmsford", "display_phone": "(978) 256-6999", "transactions": [], "phone": "+19782566999", "distance": 1131.7363935075998, "categories": [{"title": "Pizza", "alias": "pizza"}, {"title": "Italian", "alias": "italian"}], "coordinates": {"longitude": -71.3499450683594, "latitude": 42.5980911254883}, "price": "$$", "is_closed": false, "rating": 3.0, "image_url": "https://s3-media2.fl.yelpcdn.com/bphoto/6lDT3QV5bBkzf4Mee2U21Q/o.jpg"}, {"name": "Independence Bar & Grill", "url": "https://www.yelp.com/biz/independence-bar-and-grill-chelmsford?adjust_creative=WMqiNkJ3XbQjLxHnZ2l8pQ&utm_campaign=yelp_api_v3&utm_medium=api_v3_business_search&utm_source=WMqiNkJ3XbQjLxHnZ2l8pQ", "review_count": 9, "location": {"city": "Chelmsford", "zip_code": "01824", "address3": "", "country": "US", "address1": "10 Independence Dr", "display_address": ["10 Independence Dr", "Chelmsford, MA 01824"], "state": "MA", "address2": ""}, "id": "independence-bar-and-grill-chelmsford", "display_phone": "(978) 244-0500", "transactions": [], "phone": "+19782440500", "distance": 1797.4732944060002, "categories": [{"title": "Bars", "alias": "bars"}, {"title": "American (Traditional)", "alias": "tradamerican"}], "coordinates": {"longitude": -71.3485336303711, "latitude": 42.602970123291}, "is_closed": false, "rating": 2.0, "image_url": "https://s3-media2.fl.yelpcdn.com/bphoto/4gnjk9_5Q7Za9gb-KLbXGw/o.jpg"}, {"name": "Brothers Pizza", "url": "https://www.yelp.com/biz/brothers-pizza-chelmsford?adjust_creative=WMqiNkJ3XbQjLxHnZ2l8pQ&utm_campaign=yelp_api_v3&utm_medium=api_v3_business_search&utm_source=WMqiNkJ3XbQjLxHnZ2l8pQ", "review_count": 13, "location": {"city": "Chelmsford", "zip_code": "01824", "address3": "", "country": "US", "address1": "7 Summer St", "display_address": ["7 Summer St", "Chelmsford, MA 01824"], "state": "MA", "address2": ""}, "id": "brothers-pizza-chelmsford", "display_phone": "(978) 256-2552", "transactions": [], "phone": "+19782562552", "distance": 738.3276621911999, "categories": [{"title": "Pizza", "alias": "pizza"}], "coordinates": {"longitude": -71.347275782265, "latitude": 42.594273813325}, "price": "$$", "is_closed": false, "rating": 3.0, "image_url": "https://s3-media2.fl.yelpcdn.com/bphoto/e1iAQy-98C9MoFLjkKlXoA/o.jpg"}, {"name": "Phoenix Rising Pizza", "url": "https://www.yelp.com/biz/phoenix-rising-pizza-lowell?adjust_creative=WMqiNkJ3XbQjLxHnZ2l8pQ&utm_campaign=yelp_api_v3&utm_medium=api_v3_business_search&utm_source=WMqiNkJ3XbQjLxHnZ2l8pQ", "review_count": 8, "location": {"city": "Lowell", "zip_code": "01854", "address3": "", "country": "US", "address1": "500 Pawtucket St", "display_address": ["500 Pawtucket St", "Lowell, MA 01854"], "state": "MA", "address2": null}, "id": "phoenix-rising-pizza-lowell", "display_phone": "(978) 349-1077", "transactions": [], "phone": "+19783491077", "distance": 6641.092787959999, "categories": [{"title": "Food Trucks", "alias": "foodtrucks"}, {"title": "Pizza", "alias": "pizza"}, {"title": "Italian", "alias": "italian"}], "coordinates": {"longitude": -71.3327706, "latitude": 42.6462934}, "price": "$", "is_closed": false, "rating": 5.0, "image_url": "https://s3-media2.fl.yelpcdn.com/bphoto/aWDS_3R9jtghm1EVYULtRg/o.jpg"}, {"name": "Egyptian Grill", "url": "https://www.yelp.com/biz/egyptian-grill-lowell?adjust_creative=WMqiNkJ3XbQjLxHnZ2l8pQ&utm_campaign=yelp_api_v3&utm_medium=api_v3_business_search&utm_source=WMqiNkJ3XbQjLxHnZ2l8pQ", "review_count": 39, "location": {"city": "Lowell", "zip_code": "01854", "address3": "", "country": "US", "address1": "272 Riverside St", "display_address": ["272 Riverside St", "Lowell, MA 01854"], "state": "MA", "address2": ""}, "id": "egyptian-grill-lowell", "display_phone": "(774) 955-4339", "transactions": [], "phone": "+17749554339", "distance": 7832.846716515999, "categories": [{"title": "Food Trucks", "alias": "foodtrucks"}, {"title": "Egyptian", "alias": "egyptian"}], "coordinates": {"longitude": -71.3256809860468, "latitude": 42.6558472216129}, "price": "$", "is_closed": false, "rating": 4.5, "image_url": "https://s3-media2.fl.yelpcdn.com/bphoto/W9ZMGxqALbML9wkfd3AevQ/o.jpg"}, {"name": "Souped Up Food", "url": "https://www.yelp.com/biz/souped-up-food-billerica?adjust_creative=WMqiNkJ3XbQjLxHnZ2l8pQ&utm_campaign=yelp_api_v3&utm_medium=api_v3_business_search&utm_source=WMqiNkJ3XbQjLxHnZ2l8pQ", "review_count": 1, "location": {"city": "Billerica", "zip_code": "01821", "address3": "", "country": "US", "address1": "", "display_address": ["Billerica, MA 01821"], "state": "MA", "address2": ""}, "id": "souped-up-food-billerica", "display_phone": "(781) 439-3925", "transactions": [], "phone": "+17814393925", "distance": 5972.762532211999, "categories": [{"title": "Food Trucks", "alias": "foodtrucks"}, {"title": "Salad", "alias": "salad"}, {"title": "Sandwiches", "alias": "sandwiches"}], "coordinates": {"longitude": -71.2871410578407, "latitude": 42.5604006054409}, "is_closed": false, "rating": 5.0, "image_url": "https://s3-media2.fl.yelpcdn.com/bphoto/Jd8iI6PbPM9oAE4DOmlxdg/o.jpg"}, {"name": "Subway", "url": "https://www.yelp.com/biz/subway-chelmsford-4?adjust_creative=WMqiNkJ3XbQjLxHnZ2l8pQ&utm_campaign=yelp_api_v3&utm_medium=api_v3_business_search&utm_source=WMqiNkJ3XbQjLxHnZ2l8pQ", "review_count": 3, "location": {"city": "Chelmsford", "zip_code": "01824", "address3": null, "country": "US", "address1": "48 Chelmsford St", "display_address": ["48 Chelmsford St", "Ste 4", "Chelmsford, MA 01824"], "state": "MA", "address2": "Ste 4"}, "id": "subway-chelmsford-4", "display_phone": "(978) 250-8833", "transactions": [], "phone": "+19782508833", "distance": 1236.0522995279998, "categories": [{"title": "Sandwiches", "alias": "sandwiches"}, {"title": "Fast Food", "alias": "hotdogs"}], "coordinates": {"longitude": -71.34995, "latitude": 42.59886}, "is_closed": false, "rating": 2.0, "image_url": "https://s3-media4.fl.yelpcdn.com/bphoto/MVw6I1WHI7PViM4NSMBEOg/o.jpg"}, {"name": "Domino's Pizza", "url": "https://www.yelp.com/biz/dominos-pizza-chelmsford?adjust_creative=WMqiNkJ3XbQjLxHnZ2l8pQ&utm_campaign=yelp_api_v3&utm_medium=api_v3_business_search&utm_source=WMqiNkJ3XbQjLxHnZ2l8pQ", "review_count": 13, "location": {"city": "Chelmsford", "zip_code": "01824", "address3": "", "country": "US", "address1": "118 Chelmsford St", "display_address": ["118 Chelmsford St", "Chelmsford, MA 01824"], "state": "MA", "address2": ""}, "id": "dominos-pizza-chelmsford", "display_phone": "(978) 250-1555", "transactions": [], "phone": "+19782501555", "distance": 1748.760503814, "categories": [{"title": "Pizza", "alias": "pizza"}], "coordinates": {"longitude": -71.3463593, "latitude": 42.6034889}, "price": "$", "is_closed": false, "rating": 2.0, "image_url": "https://s3-media2.fl.yelpcdn.com/bphoto/dlP1TT79o62m_3nYKo8MRQ/o.jpg"}, {"name": "DM Productions", "url": "https://www.yelp.com/biz/dm-productions-burlington-2?adjust_creative=WMqiNkJ3XbQjLxHnZ2l8pQ&utm_campaign=yelp_api_v3&utm_medium=api_v3_business_search&utm_source=WMqiNkJ3XbQjLxHnZ2l8pQ", "review_count": 24, "location": {"city": "Burlington", "zip_code": "01803", "address3": null, "country": "US", "address1": "11 Given Dr", "display_address": ["11 Given Dr", "Burlington, MA 01803"], "state": "MA", "address2": null}, "id": "dm-productions-burlington-2", "display_phone": "(781) 932-8700", "transactions": [], "phone": "+17819328700", "distance": 18368.74363291, "categories": [{"title": "DJs", "alias": "djs"}, {"title": "Karaoke", "alias": "karaoke"}, {"title": "Wedding Planning", "alias": "wedding_planning"}], "coordinates": {"longitude": -71.1721878051758, "latitude": 42.487174987793}, "price": "$$", "is_closed": false, "rating": 5.0, "image_url": "https://s3-media1.fl.yelpcdn.com/bphoto/MNIFRsEHJebv7qACIMufXQ/o.jpg"}, {"name": "Chez Rafiki's", "url": "https://www.yelp.com/biz/chez-rafikis-lowell?adjust_creative=WMqiNkJ3XbQjLxHnZ2l8pQ&utm_campaign=yelp_api_v3&utm_medium=api_v3_business_search&utm_source=WMqiNkJ3XbQjLxHnZ2l8pQ", "review_count": 1, "location": {"city": "Lowell", "zip_code": "01854", "address3": null, "country": "US", "address1": "322 Aiken St", "display_address": ["322 Aiken St", "Lowell, MA 01854"], "state": "MA", "address2": null}, "id": "chez-rafikis-lowell", "display_phone": "(978) 476-6502", "transactions": [], "phone": "+19784766502", "distance": 7656.792967215999, "categories": [{"title": "Food Trucks", "alias": "foodtrucks"}, {"title": "Mediterranean", "alias": "mediterranean"}], "coordinates": {"longitude": -71.317420983908, "latitude": 42.6525027022823}, "is_closed": false, "rating": 5.0, "image_url": "https://s3-media1.fl.yelpcdn.com/bphoto/WO1zpsZrdBDN-jisSJ2Dhg/o.jpg"}]}